[
  {
    "Name": "Bike Now",
    "Address": "Amberger Straße 95",
    "City": "Neumarkt",
    "Province/State": "Bayern",
    "Country": "DE",
    "Postal/Zip Code": 92318,
    "Phone": "+49 9181 47550",
    "Email": "team@bikenow.de",
    "Website": "https://bikenow.de/",
    "Hours": "Montag - Freitag: 8:00 - 18:00 Uhr\nSamstag: 8:00 - 13:00 Uhr",
    "Dealer (Y/N)": "Y",
    "Rental Station (Y/N)": "N",
    "Service Center (Y/N)": "Y"
  },
  {
    "Name": "Veloland Blois",
    "Address": "Rue Bernard Palissy",
    "City": "Vineuil",
    "Province/State": "Lorraine",
    "Country": "FR",
    "Postal/Zip Code": 41350,
    "Phone": "+33 254500103",
    "Email": "velolandblois@valdeloirevelo.fr",
    "Website": "https://valdeloirevelo.fr/",
    "Hours": "Monday: 2 pm - 7 pm\nTuesday - Saturday: 10 - 12 am & 2 - 7 pm",
    "Dealer (Y/N)": "Y",
    "Rental Station (Y/N)": "N",
    "Service Center (Y/N)": "Y"
  },
  {
    "Name": "Val de Loire Velo",
    "Address": "15 Rue Arthur Rimband",
    "City": "Tours",
    "Province/State": "Lorraine",
    "Country": "FR",
    "Postal/Zip Code": 37100,
    "Phone": "+33 247633724",
    "Email": "toursnord@valdeloirevelo.fr",
    "Website": "https://www.valdeloirevelo.fr/",
    "Hours": "Monday: 2 - 7 pm\nTuesday - Saturday: 10 - 12 am & 2 - 7 pm",
    "Dealer (Y/N)": "Y",
    "Rental Station (Y/N)": "N",
    "Service Center (Y/N)": "Y"
  },
  {
    "Name": "Val de Loire Velo",
    "Address": "7 Rue Paul Langevin",
    "City": "Chambray les Tours",
    "Province/State": "Lorraine",
    "Country": "FR",
    "Postal/Zip Code": 37170,
    "Phone": "+33 247748080",
    "Email": "velolandtours@valdeloirevelo.fr",
    "Website": "https://www.valdeloirevelo.fr/",
    "Hours": "Monday: 2 - 7 pm\nTuesday - Saturday: 10 - 12 am & 2 - 7 pm",
    "Dealer (Y/N)": "Y",
    "Rental Station (Y/N)": "N",
    "Service Center (Y/N)": "N"
  },
  {
    "Name": "Badbikes",
    "Address": "Dornbergweg 28",
    "City": "Werningerode",
    "Province/State": "Sachsen-Anhalt",
    "Country": "DE",
    "Postal/Zip Code": 38855,
    "Phone": "+49 3943 694 253",
    "Email": "badbikes.online@gmail.com",
    "Website": "https://www.rockmachine-germany.de/",
    "Hours": "Mo - Fr: 08:30 - 18:30 Uhr\nSa: 09:00 - 13:00 Uhr",
    "Dealer (Y/N)": "Y",
    "Rental Station (Y/N)": "N",
    "Service Center (Y/N)": "N"
  },
  {
    "Name": "Velocity Braunschweig GmbH",
    "Address": "Kurt-Schumacher-Straße 8",
    "City": "Braunschweing",
    "Province/State": "Niedersachsen",
    "Country": "DE",
    "Postal/Zip Code": 38102,
    "Phone": "+49 531 1231180",
    "Email": "verkauf@velocity-bs.de",
    "Website": "https://velocity-bs.de/",
    "Hours": "Montag : geschlossen\nDienstag - Freitag: 11:00 - 19:00 Uhr\nSamstag: 10:00 - 14:00 Uhr",
    "Dealer (Y/N)": "Y",
    "Rental Station (Y/N)": "N",
    "Service Center (Y/N)": "N"
  },
  {
    "Name": "Rad Max ",
    "Address": "Marktplatz 7",
    "City": "Mühlacker",
    "Province/State": "Baden-Wuerttemberg",
    "Country": "DE",
    "Postal/Zip Code": 75417,
    "Phone": "+49 172 77 40 890",
    "Email": "info@rad-max.de",
    "Website": "https://www.rad-max.de/",
    "Hours": "Montag: 14:00  - 18:00 Uhr\nDienstag, Donnerstag & Freitag: 10:00 - 13:00 Uhr & 14:00 - 18:00 Uhr\nMittwoch: 14:00 - 18:00 Uhr\nSamstag: 10:00 - 13:00 Uhr",
    "Dealer (Y/N)": "Y",
    "Rental Station (Y/N)": "N",
    "Service Center (Y/N)": "N"
  },
  {
    "Name": "CICLI BERTINETTI",
    "Address": "Via Trieste 47",
    "City": "Biella",
    "Province/State": "Piedmont",
    "Country": "IT",
    "Postal/Zip Code": 13900,
    "Phone": "+39 15406587",
    "Email": "ciclibertinetti@libero.it",
    "Hours": "Tuesday - Friday: 9:00 - 12:00 & 16:00 - 19:00\nSaturday: 9:00 - 12:00\n",
    "Dealer (Y/N)": "Y",
    "Rental Station (Y/N)": "N",
    "Service Center (Y/N)": "Y"
  },
  {
    "Name": "Cycles Guyonnet",
    "Address": "105 Avenue du Marechal de Lattre",
    "City": "Niort",
    "Province/State": "Poitou-Charentes",
    "Country": "FR",
    "Postal/Zip Code": 79000,
    "Phone": "+33 5 49 73 98 86",
    "Email": "Cycles-guyonnet@orange.fr",
    "Hours": "Monday:  14:00 - 18:00\nTuesday, Thursday, Friday & Saturday: 8:00 12:00 & 14:00 - 18:00",
    "Dealer (Y/N)": "Y",
    "Rental Station (Y/N)": "N",
    "Service Center (Y/N)": "Y"
  },
  {
    "Name": "CYCLES EXPERTS BAIN DE BR",
    "Address": "1 Rue Lanserva",
    "City": "Plechatel",
    "Province/State": "Bretagne",
    "Country": "FR",
    "Postal/Zip Code": 35470,
    "Phone": "+33 299444650",
    "Email": "sarlh3b@gmail.com",
    "Website": "http://cyclexperts.com",
    "Hours": "Monday - Friday: 9:30 -12:30 & 14:00 - 19:00\nSaturday: 9:30 - 18:00",
    "Dealer (Y/N)": "Y",
    "Rental Station (Y/N)": "N",
    "Service Center (Y/N)": "Y"
  },
  {
    "Name": "Martin's Fahrradladen",
    "Address": "Alter Hessenweg 23a",
    "City": "Lüneburg",
    "Province/State": "Niedersachsen",
    "Country": "DE",
    "Postal/Zip Code": 21335,
    "Phone": "+49 41319984140",
    "Email": "md.doetsch@gmail.com",
    "Hours": "Dienstag - Freitag: 10:00 - 12:00 & 13:00 - 18:00 Uhr\nSamstag: 11:00 - 14:00 Uhr",
    "Dealer (Y/N)": "Y",
    "Rental Station (Y/N)": "N",
    "Service Center (Y/N)": "Y"
  },
  {
    "Name": "enduroX Hollmann& Richter GbR",
    "Address": "Hetzweger Weg 4",
    "City": "Rotenburg",
    "Province/State": "Niedersachsen",
    "Country": "DE",
    "Postal/Zip Code": 27356,
    "Phone": "+49 4261-6826",
    "Email": "INFO@ENDUROX.DE",
    "Website": "https://www.endurox.de/",
    "Hours": "Montag - Freitag: 09:00 - 18:00 Uhr\nSamstag: 10:00 - 13:00 Uhr",
    "Dealer (Y/N)": "Y",
    "Rental Station (Y/N)": "N",
    "Service Center (Y/N)": "Y"
  },
  {
    "Name": "Fahrrad-Team Baumann",
    "Address": "Im Leimenfeld 7",
    "City": "Ringsheim",
    "Province/State": "Baden-Wuerttemberg",
    "Country": "DE",
    "Postal/Zip Code": 77975,
    "Phone": "+49 176/32426587 ",
    "Email": "fahrrad@teambaumann.com",
    "Website": "https://www.teambaumann.com/fahrrad",
    "Hours": "Montag, Dienstag, Donnerstag & Freitag: 15:30 Uhr- 18:30 Uhr\nMittwoch: geschlossen\nSamstag: 10:00 - 13:00 Uhr\n",
    "Dealer (Y/N)": "Y",
    "Rental Station (Y/N)": "N",
    "Service Center (Y/N)": "Y"
  },
  {
    "Name": "Radlmadl ",
    "Address": "Lenbachstraße 39",
    "City": "Schrobenhausen",
    "Province/State": "Bayern",
    "Country": "DE",
    "Postal/Zip Code": 86529,
    "Phone": "+49 176 31541822",
    "Email": "info@radlmadl.de",
    "Website": "https://radlmadl.de/",
    "Hours": "Dienstag - Freitag: 9:00 - 13:00 & 14:00 - 18:00 Uhr\nSamstag: 9:00 - 13:00 Uhr",
    "Dealer (Y/N)": "Y",
    "Rental Station (Y/N)": "N",
    "Service Center (Y/N)": "Y"
  },
  {
    "Name": "Sport Passion GSB",
    "Address": "273 chemin de Croupillac",
    "City": "Ales",
    "Province/State": "Midi-Pyrenees",
    "Country": "FR",
    "Postal/Zip Code": 30100,
    "Phone": "+33 4 66 55 17 23",
    "Email": "30ales@culturevelo.com",
    "Website": "https://www.culturevelo.com/-Ales-",
    "Hours": "Monday - Saturday: 9:30 - 12:30 & 14:30 - 19:00",
    "Dealer (Y/N)": "Y",
    "Rental Station (Y/N)": "N",
    "Service Center (Y/N)": "N"
  },
  {
    "Name": "GEM BIKES BBMC ",
    "Address": "22 avenue du Mont Aigoual",
    "City": "Ganges",
    "Province/State": "Midi-Pyrenees",
    "Country": "FR",
    "Postal/Zip Code": 34190,
    "Phone": "+33 4 99 64 91 73",
    "Email": "34ganges@gem-bikes.com",
    "Website": "https://shop.gem-bikes.com/",
    "Hours": "Monday: 14:30 - 19:00\nTuesday - Saturday: 9:30 - 12:30 & 14:30 -19:00",
    "Dealer (Y/N)": "Y",
    "Rental Station (Y/N)": "N",
    "Service Center (Y/N)": "N"
  },
  {
    "Name": "MONBOIPEN SPORT34",
    "Address": "2 rue des Joncasses",
    "City": "Le Cres",
    "Province/State": "Languedoc-Roussillon",
    "Country": "FR",
    "Postal/Zip Code": 34920,
    "Phone": "+33 4 67 72 64 46",
    "Email": "34montpellier-lecres@culturevelo.c",
    "Website": "https://www.culturevelo.com/-Mon",
    "Hours": "Monday: closed\nTuesday - Saturday: 9:30 -12:00 & 14:00 - 19:00",
    "Dealer (Y/N)": "Y",
    "Rental Station (Y/N)": "N",
    "Service Center (Y/N)": "N"
  },
  {
    "Name": "Zweirad Würdinger ",
    "Address": "Kapuziner Straße 107",
    "City": "Vilshofen",
    "Province/State": "Bayern",
    "Country": "DE",
    "Postal/Zip Code": 94474,
    "Phone": "+49 8541 910710",
    "Email": "info@wuerdinger.de",
    "Website": "https://www.wuerdinger.de/",
    "Hours": "Montag - Freitag: 09:00 - 18:00 Uhr\nSamstag: 9:00 - 13:00 Uhr",
    "Dealer (Y/N)": "Y",
    "Rental Station (Y/N)": "N",
    "Service Center (Y/N)": "Y"
  },
  {
    "Name": "Zweirad Würdinger",
    "Address": "Äußere Spitalhofstraße 2",
    "City": "Passau",
    "Province/State": "Bayern",
    "Country": "DE",
    "Postal/Zip Code": 94036,
    "Phone": "+49 851 6346",
    "Email": "passau@wuerdinger.de",
    "Website": "https://www.wuerdinger.de/",
    "Hours": "Montag - Freitag: 9:00 - 18:00 Uhr\nSamstag: 9:00 - 13:00 Uhr",
    "Dealer (Y/N)": "Y",
    "Rental Station (Y/N)": "N",
    "Service Center (Y/N)": "Y"
  },
  {
    "Name": "Zweirad Würdinger",
    "Address": "Scheiblerstr. 10",
    "City": "Plattling",
    "Province/State": "Bayern",
    "Country": "DE",
    "Postal/Zip Code": 94447,
    "Phone": "+49 9931 8945901",
    "Email": "plattling@wuerdinger.de",
    "Website": "https://www.wuerdinger.de/",
    "Hours": "Montag - Freitag: 9:00 - 18:00 Uhr\nSamstag: 9:00 - 13:00 Uhr",
    "Dealer (Y/N)": "Y",
    "Rental Station (Y/N)": "N",
    "Service Center (Y/N)": "Y"
  },
  {
    "Name": "Radshop Brunner",
    "Address": "Mürwiker Straße 144",
    "City": "Flensburg",
    "Province/State": "Schleswig-Holstein",
    "Country": "DE",
    "Postal/Zip Code": 24943,
    "Phone": "+49 461 312462",
    "Email": "info@eike-brunner.de",
    "Website": "http://eike-brunner.de/",
    "Hours": "Montag - Freitag: 9:00 - 18:00 Uhr\nSamstag: 9:00 - 13:00 Uhr",
    "Dealer (Y/N)": "Y",
    "Rental Station (Y/N)": "N",
    "Service Center (Y/N)": "N"
  },
  {
    "Name": "Zweiradhaus Kämpflein",
    "Address": "Mittelstraße 35+37",
    "City": "Daaden",
    "Province/State": "Rheinland-Pfalz",
    "Country": "DE",
    "Postal/Zip Code": 57567,
    "Phone": " +49 2743 930204 ",
    "Email": " kaempflein@t-online.de",
    "Website": "https://www.kaempflein-zweirad.de/",
    "Hours": "Montag - Freitag: 10:00 - 13:00 Uhr & 14:00 - 18:00 Uhr\nSamstag: 10:00 - 13:00 Uhr\n",
    "Dealer (Y/N)": "Y",
    "Rental Station (Y/N)": "N",
    "Service Center (Y/N)": "Y"
  },
  {
    "Name": "Fahrrad Rapp",
    "Address": "Hauptstraße 161",
    "City": "Kehl",
    "Province/State": "Baden-Wuerttemberg",
    "Country": "DE",
    "Postal/Zip Code": 77694,
    "Phone": "+49 785171231",
    "Email": "info@fahrrad-rapp.de",
    "Website": "https://www.fahrrad-rapp.de/",
    "Hours": "Montag, Dienstag, Donnerstag & Freitag: 9:00 - 13:00 & 14:00 - 18:00 Uhr\nSamstag: 9:00 - 13:00 Uhr",
    "Dealer (Y/N)": "Y",
    "Rental Station (Y/N)": "N",
    "Service Center (Y/N)": "N"
  },
  {
    "Name": "House of Bikes",
    "Address": "Eiserfelder Straße 236",
    "City": "Siegen",
    "Province/State": "Nordrhein-Westfalen",
    "Country": "DE",
    "Postal/Zip Code": 57080,
    "Phone": "+49 271 3868250 ",
    "Email": " info@house-of-bikes.de",
    "Website": "https://www.house-of-bikes-siegen.de/",
    "Hours": "Montag - Freitag: 10:00 - 18:00 Uhr\nSamstag: 9:00 - 14:00 Uhr",
    "Dealer (Y/N)": "Y",
    "Rental Station (Y/N)": "N",
    "Service Center (Y/N)": "Y"
  },
  {
    "Name": "CM Emporio",
    "Address": "Piazza Mercato 14",
    "City": "Comano Terme",
    "Province/State": "Trentino-Alto Adige",
    "Country": "IT",
    "Postal/Zip Code": 38077,
    "Phone": "+39 335 453188",
    "Email": "info@cm-emporio.it",
    "Website": "https://cm-emporio.it/",
    "Hours": "Monday - Saturday: 6:30 - 12:30 & 15:00 - 19:30\nSunday: 7:00 - 12:00",
    "Dealer (Y/N)": "Y",
    "Rental Station (Y/N)": "N",
    "Service Center (Y/N)": "Y"
  },
  {
    "Name": "VELOLAND Cannes",
    "Address": "Zi Les Tourrades",
    "City": "Mandelieu",
    "Province/State": "Provence-Alpes-Cote d'Azur",
    "Country": "FR",
    "Postal/Zip Code": "06210",
    "Phone": "+33 493472026",
    "Email": "veloland-cannes@veloland.com",
    "Website": "http://veloland.com",
    "Hours": "Tuesday - Saturday: 10:00 - 13:00 & 15:00 - 19:00",
    "Dealer (Y/N)": "Y",
    "Rental Station (Y/N)": "N",
    "Service Center (Y/N)": "N"
  },
  {
    "Name": "Motopep",
    "Address": "Via Cesare Battisti 82",
    "City": "Pogliano Milanese",
    "Province/State": "Lombardy",
    "Country": "IT",
    "Postal/Zip Code": 20005,
    "Phone": "+39 02 934 1902",
    "Email": "motorpep@gmail.com",
    "Website": "https://www.motorpepstore.it",
    "Hours": "Tuesday - Saturday: 9:00 –12:30 & 15:00 – 19:00\n",
    "Dealer (Y/N)": "Y",
    "Rental Station (Y/N)": "N",
    "Service Center (Y/N)": "Y"
  },
  {
    "Name": "Drahtesel Der Fahrradladen",
    "Address": "Saathainer Straße 296",
    "City": "Elsterwerda",
    "Province/State": "Brandenburg",
    "Country": "DE",
    "Postal/Zip Code": "04910",
    "Phone": "+49 6355 164471",
    "Email": "mrz-weber@t-online.de",
    "Hours": "Montag - Freitag: 9:00 - 18:00 Uhr\nSamstag: 9:00 - 12:00 Uhr",
    "Dealer (Y/N)": "Y",
    "Rental Station (Y/N)": "N",
    "Service Center (Y/N)": "Y"
  },
  {
    "Name": "Bike Point Jena",
    "Address": "Löbstedter Straße 53",
    "City": "Jena",
    "Province/State": "Thüringen",
    "Country": "DE",
    "Postal/Zip Code": "07749",
    "Phone": "+49 3641 618561",
    "Email": "mail@bike-point-jena.de",
    "Website": "https://bike-point-jena.de/",
    "Hours": "Montag - Freitag: 10:00 - 18:00 Uhr\nSamstag: 10:00 - 13:00 Uhr",
    "Dealer (Y/N)": "Y",
    "Rental Station (Y/N)": "N",
    "Service Center (Y/N)": "Y"
  },
  {
    "Name": "EBike-Warehouse.de",
    "Address": "Hoffeldstr. 104",
    "City": "Düsseldorf",
    "Province/State": "Nordrhein-Westfalen",
    "Country": "DE",
    "Postal/Zip Code": 40235,
    "Phone": "+49 211-4167251",
    "Email": "info@ebike-warehouse.de",
    "Website": "https://ebike-warehouse.de/",
    "Hours": "Montag - Freitag: 9:30 - 17:30 Uhr\nSamstag: 11:00 - 15:00 Uhr",
    "Dealer (Y/N)": "Y",
    "Rental Station (Y/N)": "N",
    "Service Center (Y/N)": "Y"
  },
  {
    "Name": "Fahrradladen Bonn",
    "Address": "Justus-von-Liebig-Str. 31",
    "City": "Bonn",
    "Province/State": "Nordrhein-Westfalen",
    "Country": "DE",
    "Postal/Zip Code": 53121,
    "Phone": "+49 228 84254877",
    "Email": "info@fahrradladen-bonn.de",
    "Website": "https://www.fahrradladen-bonn.de/",
    "Dealer (Y/N)": "Y",
    "Rental Station (Y/N)": "N",
    "Service Center (Y/N)": "Y"
  },
  {
    "Name": "Zweirad Hansen",
    "Address": "Steingasse 4",
    "City": "Blankenheim",
    "Province/State": "Nordrhein-Westfalen",
    "Country": "DE",
    "Postal/Zip Code": 53945,
    "Phone": "+49 163 844 333 6",
    "Email": "info@zweirad-hansen.de",
    "Website": "https://www.zweirad-hansen.de/",
    "Hours": "Dienstag - Freitag: 14:00 - 18:00 Uhr\nSamstag: 9:00 - 12:00 Uhr",
    "Dealer (Y/N)": "Y",
    "Rental Station (Y/N)": "N",
    "Service Center (Y/N)": "Y"
  },
  {
    "Name": "e-motion eBike Welt Wedel",
    "Address": "Langenkamp 28",
    "City": "Wedel",
    "Province/State": "Schleswig-Holstein",
    "Country": "DE",
    "Postal/Zip Code": 22880,
    "Phone": "+49 4103 80 620 81",
    "Email": "wedel@emotion-ebikes.de",
    "Website": "https://ebikes-nord.de/home/standorte/wedel/",
    "Hours": "Montag - Freitag: 10:00 - 18:30 Uhr\nSamstag: 10:00 - 15:30 Uhr",
    "Dealer (Y/N)": "Y",
    "Rental Station (Y/N)": "N",
    "Service Center (Y/N)": "N"
  },
  {
    "Name": "e-motion e-Bike Premium-Shop Blankenese",
    "Address": "Blankeneser Bahnhofstraße 60",
    "City": "Hamburg",
    "Province/State": "Hamburg",
    "Country": "DE",
    "Postal/Zip Code": 22587,
    "Phone": "+49 40 571990352",
    "Email": "blankenese@emotion-bikes.de",
    "Website": "https://ebikes-nord.de/blankenese/",
    "Hours": "Montag, Dienstag, Donnerstag & Freitag: 10:00 - 18:30 Uhr\nSamstag: 10:00 - 15:30 Uhr",
    "Dealer (Y/N)": "Y",
    "Rental Station (Y/N)": "N",
    "Service Center (Y/N)": "N"
  },
  {
    "Name": "Fahrradprofi",
    "Address": "Neumühler Straße 16",
    "City": "Amberg",
    "Province/State": "Bayern",
    "Country": "DE",
    "Postal/Zip Code": 92224,
    "Phone": "+49 9621 7890 010",
    "Email": "fahrradprofi@hotmail.de",
    "Website": "https://www.fahrradprofishop.de/",
    "Hours": "Montag - Freitag: 8:00 - 18:00 Uhr\nSamstag: 9:00 - 13:00 Uhr",
    "Dealer (Y/N)": "Y",
    "Rental Station (Y/N)": "N",
    "Service Center (Y/N)": "Y"
  },
  {
    "Name": "Bergspezl Puch",
    "Address": "Halleiner Landesstraße 50",
    "City": "Puch bei Hallein",
    "Province/State": "Salzburg",
    "Country": "AT",
    "Postal/Zip Code": 5412,
    "Phone": "+43 6245 730 00",
    "Email": "buero@bergspezl.at",
    "Website": "https://bergspezl.at/",
    "Hours": "Montag - Freitag: 8:00 - 18:00 Uhr\nSamstag: 9:00 - 13:00 Uhr",
    "Dealer (Y/N)": "Y",
    "Rental Station (Y/N)": "N",
    "Service Center (Y/N)": "Y"
  },
  {
    "Name": "Bergspezl Salzburg",
    "Address": "Eberhard-Fugger-Straße 2",
    "City": "Salzburg",
    "Province/State": "Salzburg",
    "Country": "AT",
    "Postal/Zip Code": 5020,
    "Phone": "+43 662 642 555",
    "Email": "verkauf@bergspezl-rad.at",
    "Website": "https://bergspezl.at/",
    "Hours": "Montag - Freitag: 8:00 - 18:00 Uhr\nSamstag: 9:00 - 13:00 Uhr",
    "Dealer (Y/N)": "Y",
    "Rental Station (Y/N)": "N",
    "Service Center (Y/N)": "Y"
  },
  {
    "Name": "Henco GmbH & Co. KG Westerstede",
    "Address": "Kuhlenstr. 27",
    "City": "Westerstede",
    "Province/State": "Niedersachsen",
    "Country": "DE",
    "Postal/Zip Code": 26655,
    "Phone": "+49 4488 5204690",
    "Email": "info@henco-gmbh.de",
    "Website": "http://www.hencobikes.de",
    "Hours": "Montag - Freitag: 9:00 - 18:00 Uhr\nSamstag: 9:00 - 14:00 Uhr",
    "Dealer (Y/N)": "Y",
    "Rental Station (Y/N)": "N",
    "Service Center (Y/N)": "N"
  },
  {
    "Name": "Henco GmbH & Co. KG Edewecht",
    "Address": "Haupstr. 46",
    "City": "Edewecht",
    "Province/State": "Niedersachsen",
    "Country": "DE",
    "Postal/Zip Code": 26188,
    "Phone": "+49 4405 9845356",
    "Email": "info@henco-gmbh.de",
    "Website": "http://www.hencobikes.de",
    "Hours": "Montag - Freitag: 9:00 - 18:00 Uhr\nSamstag: 9:00 - 13:00 Uhr",
    "Dealer (Y/N)": "Y",
    "Rental Station (Y/N)": "N",
    "Service Center (Y/N)": "N"
  },
  {
    "Name": "Henco GmbH & Co. KG Bockhorn",
    "Address": "Hilgenholterstr. 49",
    "City": "Bockhorn",
    "Province/State": "Niedersachsen",
    "Country": "DE",
    "Postal/Zip Code": 26345,
    "Phone": "+49 4453 9868420",
    "Email": "info@henco-gmbh.de",
    "Website": "http://www.hencobikes.de",
    "Hours": "Montag - Freitag: 9:30 - 18:00 Uhr\nSamstag: 9:30 - 14:00 Uhr",
    "Dealer (Y/N)": "Y",
    "Rental Station (Y/N)": "N",
    "Service Center (Y/N)": "N"
  },
  {
    "Name": "Henco GmbH & Co. KG Brinkum bei Leer",
    "Address": "Gewerbestr. 2",
    "City": "Brinkum",
    "Province/State": "Niedersachsen",
    "Country": "DE",
    "Postal/Zip Code": 26835,
    "Phone": "+49 4950 2229",
    "Email": "info@henco-gmbh.de",
    "Website": "http://www.hencobikes.de",
    "Hours": "Montag - Freitag: 9:00 - 12:30 & 13:30 - 18:00 Uhr\nSamstag: 9:00 - 13:00 Uhr",
    "Dealer (Y/N)": "Y",
    "Rental Station (Y/N)": "N",
    "Service Center (Y/N)": "N"
  },
  {
    "Name": "Henco GmbH & Co. KG Wiesmoor",
    "Address": "Neuer Weg  9",
    "City": "Wiesmoor",
    "Province/State": "Niedersachsen",
    "Country": "DE",
    "Postal/Zip Code": 26639,
    "Phone": "+49 4944 6329",
    "Email": "info@henco-gmbh.de",
    "Website": "http://www.hencobikes.de",
    "Hours": "Montag - Freitag: 9:00 - 18:00 Uhr\nSamstag: 9:00 - 13:00 Uhr",
    "Dealer (Y/N)": "Y",
    "Rental Station (Y/N)": "N",
    "Service Center (Y/N)": "N"
  },
  {
    "Name": "Elektrorad-Partner",
    "Address": "Hangwerfeld 4",
    "City": "Havixbeck",
    "Province/State": "Nordrhein-Westfalen",
    "Country": "DE",
    "Postal/Zip Code": 48329,
    "Phone": "+49 2507 983705",
    "Email": "info@elektrorad-partner.de",
    "Website": "http://www.elektrorad-partner.de",
    "Hours": "Montag - Freitag: 8:00 - 13:00 & 15:00 - 18:00 Uhr\nSamstag: 10:00 - 13:00 Uhr",
    "Dealer (Y/N)": "Y",
    "Rental Station (Y/N)": "N",
    "Service Center (Y/N)": "Y"
  },
  {
    "Name": "Zweiradhaus Terbrack ",
    "Address": "Bahnhofstraße 18",
    "City": "Vreden",
    "Province/State": "Nordrhein-Westfalen",
    "Country": "DE",
    "Postal/Zip Code": 48691,
    "Phone": "+49 256497999",
    "Email": "info@vredenna.de",
    "Website": "http://www.fahrradhaus-terbrack.de/",
    "Hours": "Montag - Freitag: 9:00 - 12:30 & 14:00 - 18:00 Uhr\nSamstag: 9:00 - 12:30 Uhr",
    "Dealer (Y/N)": "Y",
    "Rental Station (Y/N)": "N",
    "Service Center (Y/N)": "Y"
  },
  {
    "Name": "Zweirad Dütsch ",
    "Address": "Münsterstraße 10 – 12",
    "City": "Emsdetten",
    "Province/State": "Nordrhein-Westfalen",
    "Country": "DE",
    "Postal/Zip Code": 48282,
    "Phone": "+49 2572 960 797 4",
    "Email": "emsdetten@zweirad-duetsch.de",
    "Website": "https://ebike-emsdetten.de/",
    "Hours": "Montag - Freitag: 9:00 – 12:30 & 14:00 – 18:00 Uhr\nSamstag: 9:00 – 13:00 Uhr",
    "Dealer (Y/N)": "Y",
    "Rental Station (Y/N)": "N",
    "Service Center (Y/N)": "Y"
  },
  {
    "Name": "Radwerk Hachen",
    "Address": "Am Sportplatz 3",
    "City": "Sundern",
    "Province/State": "Nordrhein-Westfalen",
    "Country": "DE",
    "Postal/Zip Code": 59846,
    "Phone": "+49 2935 1038",
    "Email": "radwerkhachen@gmx.de",
    "Website": "https://radwerk-hüsten.de",
    "Hours": "Montag - Freitag: 8:30 - 18:00 Uhr\nSamstag: 8:30 - 13:00 Uhr",
    "Dealer (Y/N)": "Y",
    "Rental Station (Y/N)": "N",
    "Service Center (Y/N)": "Y"
  },
  {
    "Name": "Radwerk Hüsten",
    "Address": "Kleinbahnstraße 11",
    "City": "Arnsberg",
    "Province/State": "Nordrhein-Westfalen",
    "Country": "DE",
    "Postal/Zip Code": 59759,
    "Phone": "+49 2932 9319993",
    "Email": "radwerkhuesten@gmx.de",
    "Website": "https://radwerk-hüsten.de",
    "Hours": "Montag - Freitag: 8:30 - 18:00 Uhr\nSamstag: 8:30 - 13:00 Uhr",
    "Dealer (Y/N)": "Y",
    "Rental Station (Y/N)": "N",
    "Service Center (Y/N)": "Y"
  },
  {
    "Name": "A Ruota Libera Varese",
    "Address": "Via Cesare Battisti, 17​",
    "City": "Varese",
    "Province/State": "Varese",
    "Country": "IT",
    "Postal/Zip Code": 21100,
    "Phone": "+39 0332 280094",
    "Email": "​aruotalibera1@gmail.com",
    "Website": "https://www.aruotaliberavarese.com/",
    "Hours": "Monday - Saturday: 9:00 - 12:30 & 15:00 - 19:00",
    "Dealer (Y/N)": "Y",
    "Rental Station (Y/N)": "N",
    "Service Center (Y/N)": "Y"
  },
  {
    "Name": "A Ruota Libera Castronno",
    "Address": "Via Lombardia, 91",
    "City": "Castronno",
    "Province/State": "Varese",
    "Country": "IT",
    "Postal/Zip Code": 21040,
    "Phone": "+39 0332 893170",
    "Email": "aruotalibera1@gmail.com",
    "Website": "https://www.aruotaliberavarese.com/",
    "Hours": "Monday - Saturday: 9:00 - 12:30 & 15:00 - 19:00",
    "Dealer (Y/N)": "Y",
    "Rental Station (Y/N)": "N",
    "Service Center (Y/N)": "Y"
  },
  {
    "Name": "Zweirad Center Horst Weynand",
    "Address": "Zur Domaine 25",
    "City": "Bütgenbach ",
    "Province/State": "Wallonia",
    "Country": "BE",
    "Postal/Zip Code": 4750,
    "Phone": "+32 80 64 22 01",
    "Email": "weynand.horst@skynet.be",
    "Website": "https://h-weynand.be/",
    "Hours": "Monday: closed\nTuesday - Friday: 9:00 - 12:00 & 13:00 - 18:00\nSaturday: 9:00 - 12:00 & 13:00 - 16:00 (during winter until 15:00)",
    "Dealer (Y/N)": "Y",
    "Rental Station (Y/N)": "N",
    "Service Center (Y/N)": "N"
  },
  {
    "Name": "e-Bike Corner",
    "Address": "Wernberger Straße 48",
    "City": "Pfreimd",
    "Province/State": "Bayern",
    "Country": "DE",
    "Postal/Zip Code": 92536,
    "Phone": "+49 96065979430",
    "Email": "info@ebike-corner.de",
    "Website": "https://ebike-corner.de/",
    "Hours": "Montag: geschlossen\nDienstag - Freitag: 9:00 - 12:00 & 13:00 - 18:00 Uhr\nSamstag: 9:00 - 14:00 Uhr",
    "Dealer (Y/N)": "Y",
    "Rental Station (Y/N)": "N",
    "Service Center (Y/N)": "Y"
  },
  {
    "Name": "Les Cycles Clemer",
    "Address": "124 A, rue du Général de Gaulle ",
    "City": "La Neuville en Hez",
    "Province/State": "Haute-Normandie",
    "Country": "FR",
    "Postal/Zip Code": 60510,
    "Phone": "+33 3 44 68 03 72",
    "Email": "cyclesclemer@outlook.com",
    "Website": "http://www.cyclesclemer.fr",
    "Hours": "Monday: closed\nTuesday - Saturday: 9:30 - 12:00 & 14:00 - 18:30",
    "Dealer (Y/N)": "Y",
    "Rental Station (Y/N)": "N",
    "Service Center (Y/N)": "Y"
  },
  {
    "Name": "2Rad Leuer",
    "Address": "Hauptstraße 50",
    "City": "Meckenheim",
    "Province/State": "Nordrhein-Westfalen",
    "Country": "DE",
    "Postal/Zip Code": 53340,
    "Phone": "+492225 2272",
    "Email": "info@2rad-leuer.de",
    "Website": "https://www.2rad-leuer.de/",
    "Hours": "Montag: geschlossen\nDienstag - Freitag: 10:00 - 13:00 & 14:00 - 18:30 Uhr\nSamstag: 10:00 - 14:00 Uhr",
    "Dealer (Y/N)": "Y",
    "Rental Station (Y/N)": "N",
    "Service Center (Y/N)": "Y"
  },
  {
    "Name": "Zweirad Hees",
    "Address": "Hammersraße 19",
    "City": "Kreuztal",
    "Province/State": "Nordrhein-Westfalen",
    "Country": "DE",
    "Postal/Zip Code": 57223,
    "Phone": "+49 2732-79843 0",
    "Email": "info@zweirad-hees.com",
    "Website": "https://www.zweirad-hees.com/",
    "Hours": "Montag - Freitag: 10:00 - 18:00 Uhr\nSamstag: 10:00 - 13:00 Uhr",
    "Dealer (Y/N)": "Y",
    "Rental Station (Y/N)": "N",
    "Service Center (Y/N)": "Y"
  },
  {
    "Name": "Zweirad-Schmiede",
    "Address": "Zum Königsberg 5",
    "City": "Erkelenz",
    "Province/State": "Nordrhein-Westfalen",
    "Country": "DE",
    "Postal/Zip Code": 41812,
    "Phone": "+49 2435 3314",
    "Email": "zweirad-schmiede@online.de",
    "Website": "https://www.zweirad-schmiede.de/",
    "Hours": "Montag, Dienstag, Donnerstag & Freitag: 9:00 - 18:30 Uhr\nMittwoch: 9:00 - 12:30 Uhr\nSamstag: 9:00 - 14:00 Uhr",
    "Dealer (Y/N)": "Y",
    "Rental Station (Y/N)": "N",
    "Service Center (Y/N)": "Y"
  },
  {
    "Name": "Velo City Soest",
    "Address": "Elfser Weg 27a",
    "City": "Soest",
    "Province/State": "Nordrhein-Westfalen",
    "Country": "DE",
    "Postal/Zip Code": 59494,
    "Phone": "+49 2921 31318",
    "Email": "info@velo-city-soest.de",
    "Website": "https://www.velo-city-soest.de/",
    "Hours": "Montag, Dienstag, Donnerstag & Freitag: 10:00 - 18:00 Uhr\nMittwoch: 10:00 - 13:00 Uhr\nSamstag: 10:00 - 14:00 Uhr",
    "Dealer (Y/N)": "Y",
    "Rental Station (Y/N)": "N",
    "Service Center (Y/N)": "Y"
  },
  {
    "Name": "Takari Cicli",
    "Address": "VIA NICOLÒ REZZARA 14/16",
    "City": "RANICA (BG)",
    "Province/State": "Bologna",
    "Country": "IT",
    "Postal/Zip Code": 24020,
    "Phone": 39035514313,
    "Email": "info@takari.it",
    "Website": "https://www.takari.it/",
    "Hours": "Monday: 15:00 - 19:00\nTuesday -  Friday: 9:00 - 12:30 & 15:00 - 19:00\nSaturday: 9:00 - 12:30",
    "Dealer (Y/N)": "Y",
    "Rental Station (Y/N)": "N",
    "Service Center (Y/N)": "Y"
  },
  {
    "Name": "E-Bike Shop Gevelsberg",
    "Address": "Körnerstraße 79",
    "City": "Gevelsberg",
    "Province/State": "Nordrhein-Westfalen",
    "Country": "DE",
    "Postal/Zip Code": 58285,
    "Phone": "+49 176 31390444",
    "Email": "info@ebike-shop.eu",
    "Website": "http://www.ebike-shop.eu",
    "Hours": "Montag: geschlossen\nDienstag - Freitag: 13:00 - 18:00 Uhr\nSamstag: 10:00 - 14:00 Uhr",
    "Dealer (Y/N)": "Y",
    "Rental Station (Y/N)": "N",
    "Service Center (Y/N)": "Y"
  },
  {
    "Name": "E-Bike Shop Ennepetal",
    "Address": "Berninghauser Str. 2",
    "City": "Ennepetal",
    "Province/State": "Nordrhein-Westfalen",
    "Country": "DE",
    "Postal/Zip Code": 58256,
    "Phone": "+49 176 62425684",
    "Email": "info@ebike-shop.eu",
    "Website": "http://info@ebike-shop.eu",
    "Hours": "Montag: geschlossen\nDienstag - Freitag: 13:00 - 18:00 Uhr\nSamstag: 10:00 - 14:00 Uhr",
    "Dealer (Y/N)": "Y",
    "Rental Station (Y/N)": "N",
    "Service Center (Y/N)": "Y"
  },
  {
    "Name": "E-Bike ServicePoint Riegersburg",
    "Address": "Riegersburg 53b",
    "City": "Riegersburg",
    "Province/State": "Steiermark",
    "Country": "AT",
    "Postal/Zip Code": 8333,
    "Phone": "+43 681 84619785",
    "Website": "https://bauerbikes.com/standorte/standort-riegersburg/",
    "Hours": "Freitag: 10:00 - 13:00 Uhr \nSamstag: 10:00 - 13:00 Uhr ",
    "Dealer (Y/N)": "Y",
    "Rental Station (Y/N)": "N",
    "Service Center (Y/N)": "Y"
  },
  {
    "Name": "Bike Activ",
    "Address": "Taunusstraße 44",
    "City": "Großkrotzenburg",
    "Province/State": "Hessen",
    "Country": "DE",
    "Postal/Zip Code": 63538,
    "Phone": "+49 6186 201310",
    "Email": "info@bike-activ.de",
    "Website": "https://bike-activ.de/",
    "Hours": "Montag, Dienstag, Donnerstag & Freitag: 10:00 - 13:00  &14:00 - 18:00 Uhr\nMittwoch: geschlossen\nSamstag: 9:00 - 13:00 Uhr",
    "Dealer (Y/N)": "Y",
    "Rental Station (Y/N)": "N",
    "Service Center (Y/N)": "Y"
  },
  {
    "Name": "Fahrrad Heidemann",
    "Address": "Saarstraße 6a",
    "City": "Trier",
    "Province/State": "Rheinland-Pfalz",
    "Country": "DE",
    "Postal/Zip Code": 54290,
    "Phone": "+49 651 9945227",
    "Email": "info@fahrrad-heidemann.de",
    "Website": "https://www.fahrrad-heidemann.de/",
    "Hours": "Montag: geschlossen\nDienstag - Freitag: 9:00 - 18:00 Uhr\nSamstag: 9:00 - 14:00 Uhr",
    "Dealer (Y/N)": "Y",
    "Rental Station (Y/N)": "N",
    "Service Center (Y/N)": "Y"
  },
  {
    "Name": "Radlladen am Schweinemarkt",
    "Address": "Hauptstraße 8",
    "City": "Pegnitz",
    "Province/State": "Bayern",
    "Country": "DE",
    "Postal/Zip Code": 91257,
    "Phone": "+49 9241 4986630",
    "Email": "radlladen.am.schweinemarkt@gmail",
    "Website": "https://radlladen-am-schweinemarkt.de/",
    "Hours": "Montag, Donnerstag & Freitag: 10:00 - 18:00 Uhr\nDienstag: nach Vereinbarung\nMittwoch: geschlossen\nSamstag: 10:00 - 12:00 Uhr",
    "Dealer (Y/N)": "Y",
    "Rental Station (Y/N)": "N",
    "Service Center (Y/N)": "Y"
  },
  {
    "Name": "EBIKE LAB",
    "Address": "Viale Lecco 79",
    "City": "Como",
    "Province/State": "Como",
    "Country": "IT",
    "Postal/Zip Code": 22100,
    "Phone": "+39 3102270072",
    "Email": "info@ebikelab.it",
    "Website": "http://www.ebikelab.it",
    "Hours": "Monday - Friday: 9:30 - 12:30 & 14:30 - 19:00",
    "Dealer (Y/N)": "Y",
    "Rental Station (Y/N)": "N",
    "Service Center (Y/N)": "Y"
  },
  {
    "Name": "Kiki´s Fahrradhaus Silbernagl",
    "Address": "Am Römerstein 16",
    "City": "Gilching",
    "Province/State": "Bayern",
    "Country": "DE",
    "Postal/Zip Code": 82205,
    "Phone": "+49 81055036",
    "Email": "info@fahrradhaus-silbernagl.de",
    "Website": "http://www.fahrradhaus-silbernagl.de",
    "Hours": "Montag, Dienstag, Donnerstag & Freitag: 10:00 - 18:00 Uhr\nMittwoch: geschlossen\nSamstag: 10:00 - 14:00 Uhr",
    "Dealer (Y/N)": "Y",
    "Rental Station (Y/N)": "N",
    "Service Center (Y/N)": "Y"
  },
  {
    "Name": "Velo Sport Werner Otto GmbH",
    "Address": "Pastor Niemöller Platz 8",
    "City": "Berlin",
    "Province/State": "Berlin",
    "Country": "DE",
    "Postal/Zip Code": 13156,
    "Phone": "+49 30 20093711",
    "Email": "info@premium-bikeshop.de",
    "Website": "https://www.premium-bikeshop.de/",
    "Hours": "Montag - Freitag: 10:00 - 19:00 Uhr\nSamstag: geschlossen",
    "Dealer (Y/N)": "Y",
    "Rental Station (Y/N)": "N",
    "Service Center (Y/N)": "Y"
  },
  {
    "Name": "Zweirad Müller",
    "Address": "Frankfurter Strasse 67",
    "City": "Bad Vilbel",
    "Province/State": "Hessen",
    "Country": "DE",
    "Postal/Zip Code": 61118,
    "Phone": "+49 6101 85826",
    "Email": "info@fahrrad-mueller.info",
    "Website": "https://www.fahrrad-mueller.info",
    "Hours": "Montag, Dienstag, Donnerstag & Freitag: 8:30 (10:00*) - 12:30 Uhr & 14:30 - 18:00 Uhr\nMittwoch: 8:30 (10:00*) - 12:30 Uhr\nSamstag: 8:30 (10:00*) - 13:00 Uhr\n* In der Zeit vom 14.10.2024 bis 28.02.2025 erst ab 10:00 Uhr",
    "Dealer (Y/N)": "Y",
    "Rental Station (Y/N)": "N",
    "Service Center (Y/N)": "Y"
  },
  {
    "Name": "HB Zero ",
    "Address": "Via Cesare Battisti 61",
    "City": "Costa Volpino BG",
    "Province/State": "Bergamo",
    "Country": "IT",
    "Postal/Zip Code": 24062,
    "Phone": "+39 3356557739 ",
    "Email": "hbzerobike@gmail.com",
    "Website": "https://www.hbzerosrl.it/",
    "Hours": "Monday - Friday: 8:30 - 12:30 & 14:00 - 19:30\nSaturday: 8:30 - 18:30 ",
    "Dealer (Y/N)": "Y",
    "Rental Station (Y/N)": "N",
    "Service Center (Y/N)": "Y"
  },
  {
    "Name": "Die Fahrradprofis",
    "Address": "Wangener Straße 17",
    "City": "Ravensburg",
    "Province/State": "Baden-Wuerttemberg",
    "Country": "DE",
    "Postal/Zip Code": 88212,
    "Phone": "+49 751 362994 0",
    "Email": "shop@fahrradprofis.de",
    "Website": "https://www.fahrradprofis.de/",
    "Hours": "Montag - Freitag: 10:00 - 18:00 Uhr\nSamstag: 9:00 - 16:00 Uhr",
    "Dealer (Y/N)": "Y",
    "Rental Station (Y/N)": "N",
    "Service Center (Y/N)": "Y"
  },
  {
    "Name": "BIKE POINT JENA-OST",
    "Address": "Breite Straße 2",
    "City": "Jena",
    "Province/State": "Thüringen",
    "Country": "DE",
    "Postal/Zip Code": "07749",
    "Phone": "+49 3641 827110",
    "Email": "mail@bike-point-jena.de",
    "Website": "https://bike-point-jena.de/",
    "Hours": "Montag - Freitag: 10:00 - 18:00 Uhr\nSamstag: 10:00 - 13:00 Uhr",
    "Dealer (Y/N)": "Y",
    "Rental Station (Y/N)": "N",
    "Service Center (Y/N)": "Y"
  },
  {
    "Name": "HM Racing",
    "Address": "Hauptstra0e 120",
    "City": "Hage",
    "Province/State": "Niedersachsen",
    "Country": "DE",
    "Postal/Zip Code": 26524,
    "Phone": "+49 4931 9301115",
    "Email": "info@powerformx.de",
    "Website": "http://powerformx.de/",
    "Hours": "Montag, Dienstag, Mittwoch & Freitag: 9:00 - 12:00 & 14:00 - 17:00 Uhr\nDonnerstag: 9:00 - 12:00 & 14:00 - 19:00 Uhr\nSamstag: 9:00 - 12:00 Uhr",
    "Dealer (Y/N)": "Y",
    "Rental Station (Y/N)": "N",
    "Service Center (Y/N)": "N"
  },
  {
    "Name": "RADWerk Görlitz",
    "Address": "Heilige-Grab-Straße 26",
    "City": "Görlitz",
    "Province/State": "Sachsen",
    "Country": "DE",
    "Postal/Zip Code": "02826",
    "Phone": "+49 3581 4298990",
    "Email": "epost@radwerk-goerlitz.de",
    "Website": "https://www.radwerk.online/",
    "Hours": "Montag - Freitag: 9:00 - 18:00 Uhr\nSamstag: 9:00 - 12:00 Uhr",
    "Dealer (Y/N)": "Y",
    "Rental Station (Y/N)": "N",
    "Service Center (Y/N)": "Y"
  },
  {
    "Name": "Rad-Konzept Mario Johannsohn",
    "Address": "Ernst-Thälmann-Straße 125",
    "City": "Senftenberg",
    "Province/State": "Brandenburg",
    "Country": "DE",
    "Postal/Zip Code": "01968",
    "Phone": "+49 35738100811",
    "Email": "radkonzept-senftenberg@web.de",
    "Hours": "Montag - Freitag: 9:00 - 18:00 Uhr\nSamstag: 9:00 - 12:00 Uhr",
    "Dealer (Y/N)": "Y",
    "Rental Station (Y/N)": "N",
    "Service Center (Y/N)": "Y"
  },
  {
    "Name": "Radsport Claassen",
    "Address": "Judenstraße 24",
    "City": "Kempen",
    "Province/State": "Nordrhein-Westfalen",
    "Country": "DE",
    "Postal/Zip Code": 47906,
    "Phone": "+49 2152 3398",
    "Email": "info@radsport-claassen.de",
    "Website": "https://radsport-claassen.de/",
    "Hours": "Montag - Freitag: 9:00 - 13:00 & 14:00 - 18:30 Uhr\nSamstag: 10:00 - 14:00 Uhr",
    "Dealer (Y/N)": "Y",
    "Rental Station (Y/N)": "N",
    "Service Center (Y/N)": "Y"
  },
  {
    "Name": "MTB Store",
    "Address": "Langwahn 100",
    "City": "Eschweiler",
    "Province/State": "Nordrhein-Westfalen",
    "Country": "DE",
    "Postal/Zip Code": 52249,
    "Phone": "+49 240322497",
    "Email": "info@mtb-store.de",
    "Website": "https://www.mtb-store.de/",
    "Hours": "Montag, Mittwoch & Freitag: 13:00 - 18:00 Uhr\nSamstag: 10:00 - 13:00 Uhr",
    "Dealer (Y/N)": "Y",
    "Rental Station (Y/N)": "N",
    "Service Center (Y/N)": "Y"
  },
  {
    "Name": "Zweirad Nübling",
    "Address": "Rudolf Diesel Straße 9",
    "City": "Denzlingen",
    "Province/State": "Baden-Wuerttemberg",
    "Country": "DE",
    "Postal/Zip Code": 79211,
    "Phone": "+49 7666 5078",
    "Email": "info@zweirad-nuebling.de",
    "Website": "https://www.zweirad-nuebling.de/",
    "Hours": "Montag, Dienstag, Donnerstag & Freitag: 8:00 - 12:30 & 14:00 - 18:00 Uhr\nMittwoch: 8:00 - 12:30 Uhr\nSamstag: 9:00 - 13:00 Uhr",
    "Dealer (Y/N)": "Y",
    "Rental Station (Y/N)": "N",
    "Service Center (Y/N)": "N"
  },
  {
    "Name": "Radwelt Main-Tauber",
    "Address": "Wilhelm-Frank-Straße 82",
    "City": "Bad Mergentheim",
    "Province/State": "Baden-Wuerttemberg",
    "Country": "DE",
    "Postal/Zip Code": 97980,
    "Phone": "+49 7931 520 21",
    "Email": "info@radwelt-mt.de",
    "Website": "https://www.radwelt-main-tauber.de/",
    "Hours": "Montag: geschlossen\nDienstag - Freitag: 9:00 -13:00 & 14:00 - 18:00 Uhr\nSamstag: 9:00 - 13:00 Uhr",
    "Dealer (Y/N)": "Y",
    "Rental Station (Y/N)": "N",
    "Service Center (Y/N)": "Y"
  },
  {
    "Name": "Bikes Only",
    "Address": "Jakob-Krebs-Straße 124g",
    "City": "Willich-Anraht",
    "Province/State": "Nordrhein-Westfalen",
    "Country": "DE",
    "Postal/Zip Code": 4787,
    "Phone": "+49 2156 915370",
    "Email": "info@bikesonlywillich.de",
    "Website": "https://www.bikesonlywillich.de/",
    "Hours": "Montag - Freitag: 9:30 - 18:00 Uhr\nSamstag: 9:30 - 14:00 Uhr",
    "Dealer (Y/N)": "Y",
    "Rental Station (Y/N)": "N",
    "Service Center (Y/N)": "Y"
  },
  {
    "Name": "Kraft Rad GmbH",
    "Address": "Roitzheimer Straße 113",
    "City": "Euskirchen",
    "Country": "DE",
    "Postal/Zip Code": 53879,
    "Phone": "+49 2251 2758",
    "Email": "euskirchen@zweirad-kraft.de",
    "Website": "https://www.zweirad-kraft.de/",
    "Hours": "Montag - Freitag: 10:00 - 19:00 Uhr\nSamstag: 10:00 -17:00 Uhr",
    "Dealer (Y/N)": "Y",
    "Rental Station (Y/N)": "N",
    "Service Center (Y/N)": "Y"
  },
  {
    "Name": "Kraft Rad GmbH",
    "Address": "Ernst-Heinrich-Geist-Straße 7",
    "City": "Frechen",
    "Province/State": "Nordrhein-Westfalen",
    "Country": "DE",
    "Postal/Zip Code": 50226,
    "Phone": "+49 2234 911930",
    "Email": "frechen@zweirad-kraft.de",
    "Website": "https://www.zweirad-kraft.de/",
    "Hours": "Montag - Freitag: 10:00 - 19:00 Uhr\nSamstag: 10:00 -17:00 Uhr",
    "Dealer (Y/N)": "Y",
    "Rental Station (Y/N)": "N",
    "Service Center (Y/N)": "Y"
  },
  {
    "Name": "Radsport Borens",
    "Address": "Aegidienberger Straße 1",
    "City": "Bad Honnef",
    "Province/State": "Nordrhein-Westfalen",
    "Country": "DE",
    "Postal/Zip Code": 53604,
    "Phone": "+49 2224820750",
    "Email": "verkauf@radsport-borens.de",
    "Website": "https://www.radsport-borens.de/",
    "Hours": "Montag, Dienstag, Donnerstag & Freitag: 9:30 - 13:00 & 14:30 - 18:30 Uhr\nMittwoch: 9:30 - 13:00 Uhr\nSamstag: 9:30 - 14:00 Uhr",
    "Dealer (Y/N)": "Y",
    "Rental Station (Y/N)": "N",
    "Service Center (Y/N)": "Y"
  },
  {
    "Name": "eBike Welt Hanau",
    "Address": "Johann-Carl-Koch-Straße 7",
    "City": "Hanau",
    "Province/State": "Hessen",
    "Country": "DE",
    "Postal/Zip Code": 63452,
    "Phone": "+49 6181 911 99 0",
    "Email": "office@ebikewelthanau.de",
    "Website": "https://ebikewelthanau.de/",
    "Hours": "Montag: geschlossen\nDienstag - Freitag: 10:00 - 19:00 Uhr\nSamstag: 10:00 -15:00 Uhr",
    "Dealer (Y/N)": "Y",
    "Rental Station (Y/N)": "N",
    "Service Center (Y/N)": "Y"
  },
  {
    "Name": "Zweirad Stephan",
    "Address": "Untere Hauptstraße 1a",
    "City": "Thalheim",
    "Province/State": "Sachsen",
    "Country": "DE",
    "Postal/Zip Code": "09380",
    "Phone": "+49 3721 84484",
    "Email": "stephan-thalheim@t-online.de",
    "Website": "https://zweirad-stephan.de/de/",
    "Hours": "Montag - Freitag: 9:00 - 18:00 Uhr\nSamstag: 9:00 - 12:00 Uhr (ausgenommen September bis Februar)",
    "Dealer (Y/N)": "Y",
    "Rental Station (Y/N)": "N",
    "Service Center (Y/N)": "Y"
  },
  {
    "Name": "Zweirad Käppner",
    "Address": "Friedrichstraße 34",
    "City": "Neundorf",
    "Province/State": "Sachsen-Anhalt",
    "Country": "DE",
    "Postal/Zip Code": 39418,
    "Phone": "+49 3925 378951",
    "Hours": "Montag - Freitag: 9:00 - 18:00 Uhr",
    "Dealer (Y/N)": "Y",
    "Rental Station (Y/N)": "N",
    "Service Center (Y/N)": "Y"
  },
  {
    "Name": "Zweirad Sebold",
    "Address": "Duisburger Straße 147",
    "City": "Mühlheim an der Ruhr",
    "Province/State": "Nordrhein-Westfalen",
    "Country": "DE",
    "Postal/Zip Code": 45479,
    "Phone": "+49 208 425232",
    "Email": "info@zweirad-sebold.de",
    "Website": "https://www.zweirad-sebold.de/",
    "Hours": "Montag: geschlossen\nDienstag - Freitag: 9:00 - 13:00 & 14:00 - 18:30 Uhr\nSamstag: 9:00 - 13:00 Uhr",
    "Dealer (Y/N)": "Y",
    "Rental Station (Y/N)": "N",
    "Service Center (Y/N)": "Y"
  },
  {
    "Name": "Waterkant eBikes GmbH",
    "Address": "Maurerstraße 3",
    "City": "Buchholz i.d.N.",
    "Province/State": "Niedersachsen",
    "Country": "DE",
    "Postal/Zip Code": 21244,
    "Phone": "+49 41819284870",
    "Email": "nordheide@emotion-ebikes.de",
    "Website": "https://emotion-technologies.de/nordheide/",
    "Hours": "Montag: geschlossen\nDienstag - Freitag: 10:00 - 18:30 Uhr\nSamstag: 10:00 - 14:00 Uhr",
    "Dealer (Y/N)": "Y",
    "Rental Station (Y/N)": "N",
    "Service Center (Y/N)": "N"
  },
  {
    "Name": "e-motion e-Bike Welt Stade - Altes Land",
    "Address": "Hansestraße 32",
    "City": "Stade",
    "Province/State": "Niedersachsen",
    "Country": "DE",
    "Postal/Zip Code": 21682,
    "Phone": "+49 4141 4263130",
    "Email": "stade@emotion-ebikes.de",
    "Website": "https://emotion-technologies.de/stade/",
    "Hours": "Montag: geschlossen\nDienstag - Freitag: 10:00 - 18:30 Uhr\nSamstag: 10:00 - 14:00 Uhr",
    "Dealer (Y/N)": "Y",
    "Rental Station (Y/N)": "N",
    "Service Center (Y/N)": "N"
  },
  {
    "Name": "vit:bikes Hann.Münden",
    "Address": "Veckerhäger Str. 30",
    "City": "Hann.Münden",
    "Province/State": "Niedersachsen",
    "Country": "DE",
    "Postal/Zip Code": 34346,
    "Phone": "+49 5541 98250",
    "Email": "info@schelp.de",
    "Website": "https://schelp.de/",
    "Hours": "Montag - Freitag: 8:30 - 18:00 Uhr\nSamsatag: 8:30 - 13:00 Uhr",
    "Dealer (Y/N)": "Y",
    "Rental Station (Y/N)": "N",
    "Service Center (Y/N)": "N"
  },
  {
    "Name": "vit:bikes Erding",
    "Address": "Franz-Brombach-Straße 11",
    "City": "Erding",
    "Province/State": "Bayern",
    "Country": "DE",
    "Postal/Zip Code": 84435,
    "Phone": "+49 8122 9419481",
    "Email": "erding@vitbikes.de",
    "Website": "http://www.vitbikes.de",
    "Hours": "Montag: geschlossen\nDienstag - Freitag: 10:00 - 18:00 Uhr\nSamstag: 10:00 - 15:00 Uhr",
    "Dealer (Y/N)": "Y",
    "Rental Station (Y/N)": "N",
    "Service Center (Y/N)": "Y"
  },
  {
    "Name": "Lili´s Radl-Laden",
    "Address": "Martin-Luther-Straße 25",
    "City": "Hersbruck",
    "Province/State": "Bayern",
    "Country": "DE",
    "Postal/Zip Code": 91217,
    "Phone": "+49 9151 9050580",
    "Email": "info@lilis-radlladen.de",
    "Website": "http://www.lilis-radlladen.de",
    "Hours": "Montag - Freitag: 10:00 - 18:00 Uhr\nSamstag: 10:00 - 13:00 Uhr\nIn den Wintermonaten: Mittwochs nur bis 13:00 Uhr",
    "Dealer (Y/N)": "Y",
    "Rental Station (Y/N)": "N",
    "Service Center (Y/N)": "Y"
  },
  {
    "Name": "Zweirad-Center Van de Stay GmbH",
    "Address": "An St. Sebastian 40",
    "City": "Nettetal",
    "Province/State": "Nordrhein-Westfalen",
    "Country": "DE",
    "Postal/Zip Code": 41334,
    "Phone": "+49 2153 405405",
    "Email": "lobberich@van-de-Stay.de",
    "Website": "http://www.van-de-stay.de/",
    "Hours": "Montag, Dienstag, Donnerstag & Freitag: 9:00 - 13:00 & 14:00 - 18:00 Uhr\nMittwoch & Samstag: 9:00 - 13:00 Uhr\n",
    "Dealer (Y/N)": "Y",
    "Rental Station (Y/N)": "N",
    "Service Center (Y/N)": "Y"
  },
  {
    "Name": "Zweirad-Center Van de Stay GmbH",
    "Address": "Ostwall 10",
    "City": "Straelen",
    "Province/State": "Nordrhein-Westfalen",
    "Country": "DE",
    "Postal/Zip Code": 47638,
    "Phone": "+49 2834 91888",
    "Email": "fahrrad@van-de-Stay.de",
    "Website": "http://www.van-de-stay.de/",
    "Hours": "Montag, Dienstag, Donnerstag & Freitag: 9:00 - 13:00 & 14:00 - 18:00 Uhr\nMittwoch & Samstag: 9:00 - 13:00 Uhr",
    "Dealer (Y/N)": "Y",
    "Rental Station (Y/N)": "N",
    "Service Center (Y/N)": "Y"
  },
  {
    "Name": "Jonito Bikes",
    "Address": "Taschenmacherstr. 12",
    "City": "Lübeck",
    "Province/State": "Schleswig-Holstein",
    "Country": "DE",
    "Postal/Zip Code": 23556,
    "Phone": "+49 451 79 08 47 15 0",
    "Email": "info@jonito.com",
    "Website": "http://www.jonito.com",
    "Hours": "Montag: geschlossen\nDienstag - Freitag: 12:00 - 18:00 Uhr\nSamstag: geschlossen",
    "Dealer (Y/N)": "Y",
    "Rental Station (Y/N)": "N",
    "Service Center (Y/N)": "N"
  },
  {
    "Name": "Die Bike Company",
    "Address": "Bundesstraße 38a",
    "City": "Brietlingen",
    "Province/State": "Niedersachsen",
    "Country": "DE",
    "Postal/Zip Code": 21382,
    "Phone": "+49 4133 2022 368",
    "Email": "info@die-bike-company.de",
    "Website": "http://www.die-bike-company.de",
    "Hours": "Montag, Dienstag, Donnerstag & Freitag: 10:00 - 18:00 Uhr\nMittwoch: geschlossen\nSamstag: 10:00 - 15:00 Uhr",
    "Dealer (Y/N)": "Y",
    "Rental Station (Y/N)": "N",
    "Service Center (Y/N)": "N"
  },
  {
    "Name": "Drahteisel",
    "Address": "Hauptstraße 23",
    "City": "Rosental",
    "Province/State": "Steiermark",
    "Country": "AT",
    "Postal/Zip Code": 8582,
    "Phone": "+43 3142 26881",
    "Email": "rad@drahteisel.at",
    "Website": "https://drahteisel.at/",
    "Hours": "Montag - Freitag: 9:00 - 18:00 Uhr\nSamstag: 9:00 - 12:00 Uhr",
    "Dealer (Y/N)": "Y",
    "Rental Station (Y/N)": "N",
    "Service Center (Y/N)": "Y"
  },
  {
    "Name": "Little John Bikes Berlin-Steglitz",
    "Address": "Rheinstraße 41",
    "City": "Berlin",
    "Province/State": "Berlin",
    "Country": "DE",
    "Postal/Zip Code": 12161,
    "Phone": "+49 30 85408950",
    "Email": "be10@littlejohnbikes.com",
    "Website": "https://littlejohnbikes.de",
    "Dealer (Y/N)": "Y",
    "Rental Station (Y/N)": "N",
    "Service Center (Y/N)": "Y"
  },
  {
    "Name": "Little John Bikes Berlin-Kreuzberg",
    "Address": "Hasenheide 61",
    "City": "Berlin",
    "Province/State": "Berlin",
    "Country": "DE",
    "Postal/Zip Code": 10967,
    "Phone": "+49 30 61203765",
    "Email": "be3@littlejohnbikes.com",
    "Website": "https://littlejohnbikes.de",
    "Dealer (Y/N)": "Y",
    "Rental Station (Y/N)": "N",
    "Service Center (Y/N)": "Y"
  },
  {
    "Name": "Little John Bikes Berlin-Mariendorf",
    "Address": "Mariendorfer Damm 433",
    "City": "Berlin",
    "Province/State": "Berlin",
    "Country": "DE",
    "Postal/Zip Code": 12107,
    "Phone": "+49 30 70072707",
    "Email": "be5@littlejohnbikes.co",
    "Website": "https://littlejohnbikes.de",
    "Dealer (Y/N)": "Y",
    "Rental Station (Y/N)": "N",
    "Service Center (Y/N)": "Y"
  },
  {
    "Name": "Little John Bikes Berlin-Friedrichshain",
    "Address": "Frankfurter Allee 71-77",
    "City": "Berlin",
    "Province/State": "Berlin",
    "Country": "DE",
    "Postal/Zip Code": 10247,
    "Phone": "+49 30 42804516",
    "Email": "be6@littlejohnbikes.com",
    "Website": "https://littlejohnbikes.de",
    "Dealer (Y/N)": "Y",
    "Rental Station (Y/N)": "N",
    "Service Center (Y/N)": "Y"
  },
  {
    "Name": "Little John Bikes Berlin-Schöneberg",
    "Address": "Potsdamer Straße 162",
    "City": "Berlin",
    "Province/State": "Berlin",
    "Country": "DE",
    "Postal/Zip Code": 10783,
    "Phone": "+49 30 23627310",
    "Email": "be7@littlejohnbikes.com",
    "Website": "https://littlejohnbikes.de",
    "Dealer (Y/N)": "Y",
    "Rental Station (Y/N)": "N",
    "Service Center (Y/N)": "Y"
  }
]
